<?xml version="1.0" encoding="UTF-8"?>
<kml xmlns="http://www.opengis.net/kml/2.2" xmlns:gx="http://www.google.com/kml/ext/2.2" xmlns:kml="http://www.opengis.net/kml/2.2" xmlns:atom="http://www.w3.org/2005/Atom"><Document><name>CivicTechParty.kml</name><Style id="style-0"><IconStyle><scale>1.3</scale><Icon><href>ic_0.png</href></Icon><hotSpot x="18" y="1" xunits="pixels" yunits="pixels"/></IconStyle><ListStyle><ItemIcon><href>li_0.png</href></ItemIcon></ListStyle></Style><Style id="style-1"><IconStyle><scale>1.3</scale><Icon><href>ic_1.png</href></Icon><hotSpot x="18" y="1" xunits="pixels" yunits="pixels"/></IconStyle><ListStyle><ItemIcon><href>li_1.png</href></ItemIcon></ListStyle></Style><Style id="style-2"><IconStyle><scale>1.3</scale><Icon><href>ic_2.png</href></Icon><hotSpot x="18" y="1" xunits="pixels" yunits="pixels"/></IconStyle><ListStyle><ItemIcon><href>li_2.png</href></ItemIcon></ListStyle></Style><Style id="style-3"><IconStyle><scale>1.3</scale><Icon><href>ic_3.png</href></Icon><hotSpot x="18" y="1" xunits="pixels" yunits="pixels"/></IconStyle><ListStyle><ItemIcon><href>li_3.png</href></ItemIcon></ListStyle></Style><Style id="style-4"><IconStyle><scale>1.3</scale><Icon><href>ic_4.png</href></Icon><hotSpot x="18" y="1" xunits="pixels" yunits="pixels"/></IconStyle><ListStyle><ItemIcon><href>li_4.png</href></ItemIcon></ListStyle></Style><Style id="style-5"><IconStyle><scale>1.3</scale><Icon><href>ic_5.png</href></Icon><hotSpot x="18" y="1" xunits="pixels" yunits="pixels"/></IconStyle><ListStyle><ItemIcon><href>li_5.png</href></ItemIcon></ListStyle></Style><Folder><name>CivicTechParty_kml_data</name><open>1</open><Placemark><name>がいど</name><description>&lt;![CDATA[&lt;h2&gt;がいど&lt;/h2&gt;&lt;img src="http://sv01.ubi-lab.com/Parmo/27/api/mosaic/thumbnail/large/136_1481949716272.jpg" height="400"/&gt;&lt;br&gt;説明：&lt;br&gt;ガイド テスト&lt;br&gt;&lt;br&gt;テスト&lt;br&gt;&lt;br&gt;テスト&lt;br&gt;&lt;br&gt;テスト&lt;br&gt;&lt;br&gt;&lt;br&gt;関連URL：aaa]]&gt;</description><Point><coordinates>135.698525,34.6918934,0.0</coordinates></Point><styleUrl>#style-5</styleUrl></Placemark><Placemark><name>出発前の様子</name><description>&lt;![CDATA[&lt;h2&gt;出発前の様子&lt;/h2&gt;&lt;img src="http://sv01.ubi-lab.com/Parmo/27/api/mosaic/thumbnail/large/124_1481949271207.jpg" height="400"/&gt;&lt;br&gt;説明：出発前&lt;br&gt;関連URL：関連URLだよ]]&gt;</description><Point><coordinates>135.698371707,34.6918333881,0.0</coordinates></Point><styleUrl>#style-3</styleUrl></Placemark><Placemark><name>テスト投稿だよ！</name><description>&lt;![CDATA[&lt;h2&gt;テスト投稿だよ！&lt;/h2&gt;&lt;img src="http://sv01.ubi-lab.com/Parmo/27/api/mosaic/thumbnail/large/43_1481948758301.jpg" height="400"/&gt;&lt;br&gt;説明：観光ボランティアの方から説明&lt;br&gt;関連URL：http://example.com/&lt;br&gt;http://hogehoge.com/]]&gt;</description><Point><coordinates>135.698318062,34.691872322,0.0</coordinates></Point><styleUrl>#style-1</styleUrl></Placemark><Placemark><name>大乗瀧寺</name><description>&lt;![CDATA[&lt;h2&gt;大乗瀧寺&lt;/h2&gt;&lt;img src="http://sv01.ubi-lab.com/Parmo/27/api/mosaic/thumbnail/large/119_1481951467100.jpg" height="400"/&gt;&lt;br&gt;説明：滝と地蔵&lt;br&gt;関連URL：http://takidera.webcrow.jp/]]&gt;</description><Point><coordinates>135.690089716,34.6906605503,0.0</coordinates></Point><styleUrl>#style-2</styleUrl></Placemark><Placemark><name>生駒ふるさとミュージアム</name><description>&lt;![CDATA[&lt;h2&gt;生駒ふるさとミュージアム&lt;/h2&gt;&lt;img src="http://sv01.ubi-lab.com/Parmo/27/api/mosaic/thumbnail/large/58_1481950786040.jpg" height="400"/&gt;&lt;br&gt;説明：旧生駒町役場庁舎。奈良県生駒市の歴史・文化に関するものを展示したミュージアムです。&lt;br&gt;&lt;br&gt;有形文化財に登録されている素敵な建物で、ゆったりとコーヒーをお飲みいただくこともできます。&lt;br&gt;関連URL：http://ikoma-museum.jp/]]&gt;</description><Point><coordinates>135.7045337,34.6905874,0.0</coordinates></Point><styleUrl>#style-1</styleUrl></Placemark><Placemark><name>山崎浄水場</name><description>&lt;![CDATA[&lt;h2&gt;山崎浄水場&lt;/h2&gt;&lt;img src="http://sv01.ubi-lab.com/Parmo/27/api/mosaic/thumbnail/large/129_1481951416473.jpg" height="400"/&gt;&lt;br&gt;説明：本施設は、奈良県平群調整池からの高い受水圧で発電機を回して発電するとともに減圧を行う仕組みです。&lt;br&gt;発電期間は、20年間で（施設の建設費用やメンテナンス費用等を差し引き）約8,000万円の利益を見込んでいます。また、本施設では一般家庭約62戸分の年間電気使用相当分を発電でき、年間108tの温室効果ガスの削減につながります。&lt;br&gt;関連URL：http://www.city.ikoma.lg.jp/water/0000002639.html]]&gt;</description><Point><coordinates>135.7049953,34.689021,0.0</coordinates></Point><styleUrl>#style-1</styleUrl></Placemark><Placemark><name>竹林寺の古墳</name><description>&lt;![CDATA[&lt;h2&gt;竹林寺の古墳&lt;/h2&gt;&lt;img src="http://sv01.ubi-lab.com/Parmo/27/api/mosaic/thumbnail/large/136_1481956032783.jpg" height="400"/&gt;&lt;br&gt;説明：古墳&lt;br&gt;関連URL：undefined]]&gt;</description><Point><coordinates>135.7042684,34.6721666,0.0</coordinates></Point><styleUrl>#style-5</styleUrl></Placemark><Placemark><name>竹林寺本堂</name><description>&lt;![CDATA[&lt;h2&gt;竹林寺本堂&lt;/h2&gt;&lt;img src="http://sv01.ubi-lab.com/Parmo/27/api/mosaic/thumbnail/large/112_1481956181511.jpg" height="400"/&gt;&lt;br&gt;説明：生馬山竹林寺　律宗　唐招提寺末寺　開創：聖武天皇の勅願、行基開創　神亀元年(724)&lt;br&gt;関連URL：undefined]]&gt;</description><Point><coordinates>135.7032893,34.6723183,0.0</coordinates></Point><styleUrl>#style-2</styleUrl></Placemark><Placemark><name>生駒市体育協会 滝寺スポーツセンター</name><description>&lt;![CDATA[&lt;h2&gt;生駒市体育協会 滝寺スポーツセンター&lt;/h2&gt;&lt;img src="http://sv01.ubi-lab.com/Parmo/27/api/mosaic/thumbnail/large/119_1481951774219.jpg" height="400"/&gt;&lt;br&gt;説明：生駒市体育協会 滝寺スポーツセンター&lt;br&gt;関連URL：http://www.city.ikoma.lg.jp/0000002552.html]]&gt;</description><Point><coordinates>135.690693213,34.6902901121,0.0</coordinates></Point><styleUrl>#style-1</styleUrl></Placemark><Placemark><name>大和棟（やまとむね）</name><description>&lt;![CDATA[&lt;h2&gt;大和棟（やまとむね）&lt;/h2&gt;&lt;img src="http://sv01.ubi-lab.com/Parmo/27/api/mosaic/thumbnail/large/136_1481952308545.jpg" height="400"/&gt;&lt;br&gt;説明：奈良県の民家で見られる建築様式。切妻の草葺と屋根瓦が組み合わせられており、洗練された切妻の白い漆喰壁と屋根の対象性が美しいのが特徴。棟の高い部分が主屋で低い部分が釜屋（くどや土間）で構成されている。&lt;br&gt;関連URL：https://ja.wikipedia.org/wiki/%E5%A4%A7%E5%92%8C%E6%A3%9F]]&gt;</description><Point><coordinates>135.7061002,34.6849626,0.0</coordinates></Point><styleUrl>#style-3</styleUrl></Placemark><Placemark><name>往馬大社</name><description>&lt;![CDATA[&lt;h2&gt;往馬大社&lt;/h2&gt;&lt;img src="http://sv01.ubi-lab.com/Parmo/27/api/mosaic/thumbnail/large/136_1481953299961.jpg" height="400"/&gt;&lt;br&gt;説明：古くは生駒山を御神体とした古社です。正式には往馬坐伊古麻都比古神社いこまにいますいこまつひこじんじゃと言います。「火の神」として崇拝され、毎年、火祭りが体育の日の前の土日に行なわれます。&lt;br&gt;関連URL：http://www.ikomataisha.com/]]&gt;</description><Point><coordinates>135.7047838,34.6783746,0.0</coordinates></Point><styleUrl>#style-2</styleUrl></Placemark><Placemark><name>結界石</name><description>&lt;![CDATA[&lt;h2&gt;結界石&lt;/h2&gt;&lt;img src="http://sv01.ubi-lab.com/Parmo/27/api/mosaic/thumbnail/large/58_1481956702569.jpg" height="400"/&gt;&lt;br&gt;説明：結界石　元々5つ、寺の周りにあった。その場所からして寺は甲子園球場の1．8倍のサイズだったとのこと！&lt;br&gt;関連URL：undefined]]&gt;</description><Point><coordinates>135.7034386,34.6725438,0.0</coordinates></Point><styleUrl>#style-2</styleUrl></Placemark><Placemark><name>カエンタケとは</name><description>&lt;![CDATA[&lt;h2&gt;カエンタケとは&lt;/h2&gt;&lt;img src="http://sv01.ubi-lab.com/Parmo/27/api/mosaic/thumbnail/large/43_1481951831363.jpg" height="400"/&gt;&lt;br&gt;説明：カエンタケがあるらしい．&lt;br&gt;通常は赤色だけど，写真が黄色だった．写真が劣化しているのかな？&lt;br&gt;&lt;br&gt;関連URL：https://ja.wikipedia.org/wiki/%E3%82%AB%E3%82%A8%E3%83%B3%E3%82%BF%E3%82%B1]]&gt;</description><Point><coordinates>135.6907378,34.6902849,0.0</coordinates></Point><styleUrl>#style-0</styleUrl></Placemark><Placemark><name>行基の墓</name><description>&lt;![CDATA[&lt;h2&gt;行基の墓&lt;/h2&gt;&lt;img src="http://sv01.ubi-lab.com/Parmo/27/api/mosaic/thumbnail/large/112_1481956904252.jpg" height="400"/&gt;&lt;br&gt;説明：行基の墓　国の史跡&lt;br&gt;関連URL：undefined]]&gt;</description><Point><coordinates>135.7036949,34.6723639,0.0</coordinates></Point><styleUrl>#style-2</styleUrl></Placemark><Placemark><name>忍性墓</name><description>&lt;![CDATA[&lt;h2&gt;忍性墓&lt;/h2&gt;&lt;img src="http://sv01.ubi-lab.com/Parmo/27/api/mosaic/thumbnail/large/112_1481957100270.jpg" height="400"/&gt;&lt;br&gt;説明：忍性墓（五輪塔ー復元）鎌倉時代の名僧&lt;br&gt;関連URL：undefined]]&gt;</description><Point><coordinates>135.7025768,34.6717114,0.0</coordinates></Point><styleUrl>#style-2</styleUrl></Placemark><Placemark><name>大乗滝寺の滝の上流</name><description>&lt;![CDATA[&lt;h2&gt;大乗滝寺の滝の上流&lt;/h2&gt;&lt;img src="http://sv01.ubi-lab.com/Parmo/27/api/mosaic/thumbnail/large/127_1481952112467.jpg" height="400"/&gt;&lt;br&gt;説明：滝の上から．&lt;br&gt;関連URL：http://takidera.webcrow.jp/]]&gt;</description><Point><coordinates>135.689806575,34.690539348,0.0</coordinates></Point><styleUrl>#style-3</styleUrl></Placemark><Placemark><name>竹林寺のパワースポット</name><description>&lt;![CDATA[&lt;h2&gt;竹林寺のパワースポット&lt;/h2&gt;&lt;img src="http://sv01.ubi-lab.com/Parmo/27/api/mosaic/thumbnail/large/58_1481957273236.jpg" height="400"/&gt;&lt;br&gt;説明：パワースポット。境内が綺麗に清掃されている。&lt;br&gt;関連URL：undefined]]&gt;</description><Point><coordinates>135.7033461,34.672362,0.0</coordinates></Point><styleUrl>#style-5</styleUrl></Placemark><Placemark><name>竜田川</name><description>&lt;![CDATA[&lt;h2&gt;竜田川&lt;/h2&gt;&lt;img src="http://sv01.ubi-lab.com/Parmo/27/api/mosaic/thumbnail/large/129_1481952587544.jpg" height="400"/&gt;&lt;br&gt;説明：竜田川（たつたがわ）は、大和川水系の支流で奈良県を流れる一級河川である。上流を生駒川（いこまがわ）、中流を平群川（へぐりがわ）とも呼ぶ人もいる。桜並木が綺麗。&lt;br&gt;関連URL：undefined]]&gt;</description><Point><coordinates>135.7066842,34.6825895,0.0</coordinates></Point><styleUrl>#style-3</styleUrl></Placemark><Placemark><name>せせらぎ</name><description>&lt;![CDATA[&lt;h2&gt;せせらぎ&lt;/h2&gt;&lt;img src="http://sv01.ubi-lab.com/Parmo/27/api/mosaic/thumbnail/large/127_1481952246572.jpg" height="400"/&gt;&lt;br&gt;説明：癒し感のあるせせらぎ．&lt;br&gt;関連URL：undefined]]&gt;</description><Point><coordinates>135.689415224,34.6905701934,0.0</coordinates></Point><styleUrl>#style-3</styleUrl></Placemark><Placemark><name>関屋の地蔵</name><description>&lt;![CDATA[&lt;h2&gt;関屋の地蔵&lt;/h2&gt;&lt;img src="http://sv01.ubi-lab.com/Parmo/27/api/mosaic/thumbnail/large/58_1481958026512.jpg" height="400"/&gt;&lt;br&gt;説明：関所にあった地蔵&lt;br&gt;関連URL：undefined]]&gt;</description><Point><coordinates>135.7064053,34.6700431,0.0</coordinates></Point><styleUrl>#style-2</styleUrl></Placemark><Placemark><name>南生駒コミュニティーセンター「せせらぎ」</name><description>&lt;![CDATA[&lt;h2&gt;南生駒コミュニティーセンター「せせらぎ」&lt;/h2&gt;&lt;img src="http://sv01.ubi-lab.com/Parmo/27/api/mosaic/thumbnail/large/58_1481958383756.jpg" height="400"/&gt;&lt;br&gt;説明：ゴール！南生駒コミセン&lt;br&gt;関連URL：undefined]]&gt;</description><Point><coordinates>135.707014,34.6667095,0.0</coordinates></Point><styleUrl>#style-1</styleUrl></Placemark><Placemark><name>生駒市役所</name><description>&lt;![CDATA[&lt;h2&gt;生駒市役所&lt;/h2&gt;&lt;img src="http://sv01.ubi-lab.com/Parmo/27/api/mosaic/thumbnail/large/129_1481950159055.jpg" height="400"/&gt;&lt;br&gt;説明：生駒市役所&lt;br&gt;関連URL：http://www.city.ikoma.lg.jp/]]&gt;</description><Point><coordinates>135.7000824,34.6923773,0.0</coordinates></Point><styleUrl>#style-1</styleUrl></Placemark><Placemark><name>駅ナカのマネケン</name><description>&lt;![CDATA[&lt;h2&gt;駅ナカのマネケン&lt;/h2&gt;&lt;img src="http://sv01.ubi-lab.com/Parmo/27/api/mosaic/thumbnail/large/119_1481950122043.jpg" height="400"/&gt;&lt;br&gt;説明：駅ナカのマネケン&lt;br&gt;関連URL：undefined]]&gt;</description><Point><coordinates>135.697728228,34.6928662481,0.0</coordinates></Point><styleUrl>#style-4</styleUrl></Placemark><Placemark><name>今から山登りや！</name><description>&lt;![CDATA[&lt;h2&gt;今から山登りや！&lt;/h2&gt;&lt;img src="http://sv01.ubi-lab.com/Parmo/27/api/mosaic/thumbnail/large/43_1481950122091.jpg" height="400"/&gt;&lt;br&gt;説明：今から山登り&lt;br&gt;&lt;br&gt;関連URL：undefined]]&gt;</description><Point><coordinates>135.6977578,34.6928238,0.0</coordinates></Point><styleUrl>#style-3</styleUrl></Placemark><Placemark><name>ニニギノミコトの足洗い場</name><description>&lt;![CDATA[&lt;h2&gt;ニニギノミコトの足洗い場&lt;/h2&gt;&lt;img src="http://sv01.ubi-lab.com/Parmo/27/api/mosaic/thumbnail/large/119_1481952356824.jpg" height="400"/&gt;&lt;br&gt;説明：ニニギノミコトが足を洗ったと言われるところ&lt;br&gt;関連URL：https://ja.wikipedia.org/wiki/%E3%83%8B%E3%83%8B%E3%82%AE]]&gt;</description><Point><coordinates>135.689325454,34.690480046,0.0</coordinates></Point><styleUrl>#style-2</styleUrl></Placemark><Placemark><name>電車</name><description>&lt;![CDATA[&lt;h2&gt;電車&lt;/h2&gt;&lt;img src="http://sv01.ubi-lab.com/Parmo/27/api/mosaic/thumbnail/large/127_1481950239055.jpg" height="400"/&gt;&lt;br&gt;説明：電車&lt;br&gt;関連URL：undefined]]&gt;</description><Point><coordinates>135.696910825,34.6930605406,0.0</coordinates></Point><styleUrl>#style-0</styleUrl></Placemark><Placemark><name>落ち葉の絨毯</name><description>&lt;![CDATA[&lt;h2&gt;落ち葉の絨毯&lt;/h2&gt;&lt;img src="http://sv01.ubi-lab.com/Parmo/27/api/mosaic/thumbnail/large/43_1481952458357.jpg" height="400"/&gt;&lt;br&gt;説明：落ち葉の絨毯&lt;br&gt;&lt;br&gt;関連URL：undefined]]&gt;</description><Point><coordinates>135.6895328,34.6909598,0.0</coordinates></Point><styleUrl>#style-3</styleUrl></Placemark><Placemark><name>生駒にキングコング</name><description>&lt;![CDATA[&lt;h2&gt;生駒にキングコング&lt;/h2&gt;&lt;img src="http://sv01.ubi-lab.com/Parmo/27/api/mosaic/thumbnail/large/134_1481950422833.jpg" height="400"/&gt;&lt;br&gt;説明：キングコングが見守るよ&lt;br&gt;関連URL：undefined]]&gt;</description><Point><coordinates>135.69510947,34.692970519,0.0</coordinates></Point><styleUrl>#style-0</styleUrl></Placemark><Placemark><name>溜池</name><description>&lt;![CDATA[&lt;h2&gt;溜池&lt;/h2&gt;&lt;img src="http://sv01.ubi-lab.com/Parmo/27/api/mosaic/thumbnail/large/43_1481952868269.jpg" height="400"/&gt;&lt;br&gt;説明：溜池&lt;br&gt;&lt;br&gt;関連URL：undefined]]&gt;</description><Point><coordinates>135.6871401,34.6904043,0.0</coordinates></Point><styleUrl>#style-3</styleUrl></Placemark><Placemark><name>幼稚園児の思い</name><description>&lt;![CDATA[&lt;h2&gt;幼稚園児の思い&lt;/h2&gt;&lt;img src="http://sv01.ubi-lab.com/Parmo/27/api/mosaic/thumbnail/large/119_1481950436155.jpg" height="400"/&gt;&lt;br&gt;説明：幼稚園&lt;br&gt;関連URL：undefined]]&gt;</description><Point><coordinates>135.69510838,34.6930416394,0.0</coordinates></Point><styleUrl>#style-0</styleUrl></Placemark><Placemark><name>お地蔵さん</name><description>&lt;![CDATA[&lt;h2&gt;お地蔵さん&lt;/h2&gt;&lt;img src="http://sv01.ubi-lab.com/Parmo/27/api/mosaic/thumbnail/large/127_1481950474277.jpg" height="400"/&gt;&lt;br&gt;説明：お地蔵さん&lt;br&gt;関連URL：undefined]]&gt;</description><Point><coordinates>135.694682747,34.692910756,0.0</coordinates></Point><styleUrl>#style-2</styleUrl></Placemark><Placemark><name>森の回廊</name><description>&lt;![CDATA[&lt;h2&gt;森の回廊&lt;/h2&gt;&lt;img src="http://sv01.ubi-lab.com/Parmo/27/api/mosaic/thumbnail/large/43_1481952975998.jpg" height="400"/&gt;&lt;br&gt;説明：森の回廊。他の団体の方とも遭遇。&lt;br&gt;&lt;br&gt;関連URL：undefined]]&gt;</description><Point><coordinates>135.6872191,34.690418,0.0</coordinates></Point><styleUrl>#style-3</styleUrl></Placemark><Placemark><name>CAT</name><description>&lt;![CDATA[&lt;h2&gt;CAT&lt;/h2&gt;&lt;img src="http://sv01.ubi-lab.com/Parmo/27/api/mosaic/thumbnail/large/43_1481950494407.jpg" height="400"/&gt;&lt;br&gt;説明：猫&lt;br&gt;&lt;br&gt;関連URL：undefined]]&gt;</description><Point><coordinates>135.6945387,34.6928131,0.0</coordinates></Point><styleUrl>#style-0</styleUrl></Placemark><Placemark><name>電気自動車コムス</name><description>&lt;![CDATA[&lt;h2&gt;電気自動車コムス&lt;/h2&gt;&lt;img src="http://sv01.ubi-lab.com/Parmo/27/api/mosaic/thumbnail/large/134_1481950560007.jpg" height="400"/&gt;&lt;br&gt;説明：電気自動車コムス&lt;br&gt;関連URL：undefined]]&gt;</description><Point><coordinates>135.694373874,34.6928028809,0.0</coordinates></Point><styleUrl>#style-0</styleUrl></Placemark><Placemark><name>ア・ヴォートル・サンテ （A votre sante！） </name><description>&lt;![CDATA[&lt;h2&gt;ア・ヴォートル・サンテ （A votre sante！） &lt;/h2&gt;&lt;img src="http://sv01.ubi-lab.com/Parmo/27/api/mosaic/thumbnail/large/133_1481951817894.jpg" height="400"/&gt;&lt;br&gt;説明：生駒マダムに大人気。予約が取りにくいフレンチレストラン。&lt;br&gt;関連URL：https://tabelog.com/nara/A2902/A290201/29000013/]]&gt;</description><Point><coordinates>135.7061156,34.6859429,0.0</coordinates></Point><styleUrl>#style-4</styleUrl></Placemark><Placemark><name>すごい坂道</name><description>&lt;![CDATA[&lt;h2&gt;すごい坂道&lt;/h2&gt;&lt;img src="http://sv01.ubi-lab.com/Parmo/27/api/mosaic/thumbnail/large/134_1481950664016.jpg" height="400"/&gt;&lt;br&gt;説明：すごい坂道&lt;br&gt;関連URL：undefined]]&gt;</description><Point><coordinates>135.693036709,34.6925700317,0.0</coordinates></Point><styleUrl>#style-0</styleUrl></Placemark><Placemark><name>生駒市体育協会 滝寺スポーツセンター</name><description>&lt;![CDATA[&lt;h2&gt;生駒市体育協会 滝寺スポーツセンター&lt;/h2&gt;&lt;img src="http://sv01.ubi-lab.com/Parmo/27/api/mosaic/thumbnail/large/119_1481951774219.jpg" height="400"/&gt;&lt;br&gt;説明：生駒市体育協会 滝寺スポーツセンター&lt;br&gt;関連URL：http://www.city.ikoma.lg.jp/0000002552.html]]&gt;</description><Point><coordinates>135.690693213,34.6902901121,0.0</coordinates></Point><styleUrl>#style-1</styleUrl></Placemark><Placemark><name>地蔵</name><description>&lt;![CDATA[&lt;h2&gt;地蔵&lt;/h2&gt;&lt;img src="http://sv01.ubi-lab.com/Parmo/27/api/mosaic/thumbnail/large/43_1481953275319.jpg" height="400"/&gt;&lt;br&gt;説明：地蔵．山を登りきったところにある．&lt;br&gt;&lt;br&gt;関連URL：undefined]]&gt;</description><Point><coordinates>135.6856099,34.6896979,0.0</coordinates></Point><styleUrl>#style-0</styleUrl></Placemark><Placemark><name>この先には。。。</name><description>&lt;![CDATA[&lt;h2&gt;この先には。。。&lt;/h2&gt;&lt;img src="http://sv01.ubi-lab.com/Parmo/27/api/mosaic/thumbnail/large/127_1481950712518.jpg" height="400"/&gt;&lt;br&gt;説明：この先にお墓&lt;br&gt;関連URL：undefined]]&gt;</description><Point><coordinates>135.692855995,34.6925418265,0.0</coordinates></Point><styleUrl>#style-0</styleUrl></Placemark><Placemark><name>セラピーロード</name><description>&lt;![CDATA[&lt;h2&gt;セラピーロード&lt;/h2&gt;&lt;img src="http://sv01.ubi-lab.com/Parmo/27/api/mosaic/thumbnail/large/132_1481950759343.jpg" height="400"/&gt;&lt;br&gt;説明：セラピーロード&lt;br&gt;関連URL：undefined]]&gt;</description><Point><coordinates>135.692654494,34.6920382837,0.0</coordinates></Point><styleUrl>#style-2</styleUrl></Placemark><Placemark><name>別荘？</name><description>&lt;![CDATA[&lt;h2&gt;別荘？&lt;/h2&gt;&lt;img src="http://sv01.ubi-lab.com/Parmo/27/api/mosaic/thumbnail/large/127_1481950893385.jpg" height="400"/&gt;&lt;br&gt;説明：別荘みたい&lt;br&gt;関連URL：undefined]]&gt;</description><Point><coordinates>135.692454502,34.6919154469,0.0</coordinates></Point><styleUrl>#style-3</styleUrl></Placemark><Placemark><name>登る！</name><description>&lt;![CDATA[&lt;h2&gt;登る！&lt;/h2&gt;&lt;img src="http://sv01.ubi-lab.com/Parmo/27/api/mosaic/thumbnail/large/135_1481950921636.jpg" height="400"/&gt;&lt;br&gt;説明：登る！&lt;br&gt;関連URL：undefined]]&gt;</description><Point><coordinates>135.69234,34.6918797,0.0</coordinates></Point><styleUrl>#style-3</styleUrl></Placemark><Placemark><name>きれいな小川</name><description>&lt;![CDATA[&lt;h2&gt;きれいな小川&lt;/h2&gt;&lt;img src="http://sv01.ubi-lab.com/Parmo/27/api/mosaic/thumbnail/large/119_1481950922017.jpg" height="400"/&gt;&lt;br&gt;説明：きれいな小川&lt;br&gt;関連URL：undefined]]&gt;</description><Point><coordinates>135.692366157,34.691823246,0.0</coordinates></Point><styleUrl>#style-3</styleUrl></Placemark><Placemark><name>穴から</name><description>&lt;![CDATA[&lt;h2&gt;穴から&lt;/h2&gt;&lt;img src="http://sv01.ubi-lab.com/Parmo/27/api/mosaic/thumbnail/large/128_1481950936039.jpg" height="400"/&gt;&lt;br&gt;説明：ニワトリ&lt;br&gt;関連URL：undefined]]&gt;</description><Point><coordinates>135.6923318,34.6919233,0.0</coordinates></Point><styleUrl>#style-0</styleUrl></Placemark><Placemark><name>宝山寺川</name><description>&lt;![CDATA[&lt;h2&gt;宝山寺川&lt;/h2&gt;&lt;img src="http://sv01.ubi-lab.com/Parmo/27/api/mosaic/thumbnail/large/132_1481950937522.jpg" height="400"/&gt;&lt;br&gt;説明：宝山寺川にかかる総落差20M級の滝です。&lt;br&gt;南陽院の境内にあり修験の雰囲気溢れる行場の滝です。&lt;br&gt;滝の名称は生駒市役所に問い合わせたところ｢多分、清滝です｣とのことでした。&lt;br&gt;南陽院は清滝南陽院という名称とのことです。&lt;br&gt;（出典：滝巡りINDEX）&lt;br&gt;関連URL：http://takidesune.main.jp/ikomakiyo.html&lt;br&gt;http://www1.kcn.ne.jp/~e-ikoma/sonota/houzanzi.html&lt;br&gt;http://agua.jpn.org/yamato/tatuta/houzanji.html]]&gt;</description><Point><coordinates>135.692284852,34.6917615552,0.0</coordinates></Point><styleUrl>#style-3</styleUrl></Placemark><Placemark><name>般若の滝</name><description>&lt;![CDATA[&lt;h2&gt;般若の滝&lt;/h2&gt;&lt;img src="http://sv01.ubi-lab.com/Parmo/27/api/mosaic/thumbnail/large/127_1481953455518.jpg" height="400"/&gt;&lt;br&gt;説明：修行が行われていた場所&lt;br&gt;関連URL：http://ikomasekibutsu.blogspot.jp/2016/07/hozanji-ofukuchaya.html]]&gt;</description><Point><coordinates>135.685245982,34.6889220178,0.0</coordinates></Point><styleUrl>#style-2</styleUrl></Placemark><Placemark><name>どこに続くかな？</name><description>&lt;![CDATA[&lt;h2&gt;どこに続くかな？&lt;/h2&gt;&lt;img src="http://sv01.ubi-lab.com/Parmo/27/api/mosaic/thumbnail/large/43_1481950982000.jpg" height="400"/&gt;&lt;br&gt;説明：どこに続くかな？&lt;br&gt;今回はあえて険しい道（右）を選択します&lt;br&gt;関連URL：undefined]]&gt;</description><Point><coordinates>135.6923662,34.6919157,0.0</coordinates></Point><styleUrl>#style-3</styleUrl></Placemark><Placemark><name>巨大苔</name><description>&lt;![CDATA[&lt;h2&gt;巨大苔&lt;/h2&gt;&lt;img src="http://sv01.ubi-lab.com/Parmo/27/api/mosaic/thumbnail/large/132_1481951014644.jpg" height="400"/&gt;&lt;br&gt;説明：巨大苔&lt;br&gt;関連URL：undefined]]&gt;</description><Point><coordinates>135.692120819,34.6919854777,0.0</coordinates></Point><styleUrl>#style-0</styleUrl></Placemark><Placemark><name>生駒山</name><description>&lt;![CDATA[&lt;h2&gt;生駒山&lt;/h2&gt;&lt;img src="http://sv01.ubi-lab.com/Parmo/27/api/mosaic/thumbnail/large/136_1481953528592.jpg" height="400"/&gt;&lt;br&gt;説明：文献によって、生駒山の表記が異なる。諸説あり。&lt;br&gt;関連URL：undefined]]&gt;</description><Point><coordinates>135.7045012,34.6782182,0.0</coordinates></Point><styleUrl>#style-2</styleUrl></Placemark><Placemark><name>小橋</name><description>&lt;![CDATA[&lt;h2&gt;小橋&lt;/h2&gt;&lt;img src="http://sv01.ubi-lab.com/Parmo/27/api/mosaic/thumbnail/large/43_1481951040229.jpg" height="400"/&gt;&lt;br&gt;説明：あまり丈夫でない橋なようです&lt;br&gt;関連URL：undefined]]&gt;</description><Point><coordinates>135.6919017,34.6919081,0.0</coordinates></Point><styleUrl>#style-3</styleUrl></Placemark><Placemark><name>猪の掘り跡</name><description>&lt;![CDATA[&lt;h2&gt;猪の掘り跡&lt;/h2&gt;&lt;img src="http://sv01.ubi-lab.com/Parmo/27/api/mosaic/thumbnail/large/119_1481951171328.jpg" height="400"/&gt;&lt;br&gt;説明：猪が掘った跡です&lt;br&gt;関連URL：undefined]]&gt;</description><Point><coordinates>135.691107698,34.6915970603,0.0</coordinates></Point><styleUrl>#style-0</styleUrl></Placemark><Placemark><name>生駒般若瀧不動院</name><description>&lt;![CDATA[&lt;h2&gt;生駒般若瀧不動院&lt;/h2&gt;&lt;img src="http://sv01.ubi-lab.com/Parmo/27/api/mosaic/thumbnail/large/43_1481953426985.jpg" height="400"/&gt;&lt;br&gt;説明：滝行の場所&lt;br&gt;&lt;br&gt;関連URL：undefined]]&gt;</description><Point><coordinates>135.685506,34.6894045,0.0</coordinates></Point><styleUrl>#style-2</styleUrl></Placemark><Placemark><name>お地蔵トリオ</name><description>&lt;![CDATA[&lt;h2&gt;お地蔵トリオ&lt;/h2&gt;&lt;img src="http://sv01.ubi-lab.com/Parmo/27/api/mosaic/thumbnail/large/132_1481951407311.jpg" height="400"/&gt;&lt;br&gt;説明：大乗瀧寺のお地蔵さん&lt;br&gt;関連URL：http://takidera.webcrow.jp/]]&gt;</description><Point><coordinates>135.690149479,34.6909829602,0.0</coordinates></Point><styleUrl>#style-2</styleUrl></Placemark><Placemark><name>竹林寺</name><description>&lt;![CDATA[&lt;h2&gt;竹林寺&lt;/h2&gt;&lt;img src="http://sv01.ubi-lab.com/Parmo/27/api/mosaic/thumbnail/large/136_1481957017215.jpg" height="400"/&gt;&lt;br&gt;説明：竹林寺の本堂の正面部分&lt;br&gt;関連URL：undefined]]&gt;</description><Point><coordinates>135.7033211,34.6724939,0.0</coordinates></Point><styleUrl>#style-2</styleUrl></Placemark><Placemark><name>南陽院の碑</name><description>&lt;![CDATA[&lt;h2&gt;南陽院の碑&lt;/h2&gt;&lt;img src="http://sv01.ubi-lab.com/Parmo/27/api/mosaic/thumbnail/large/43_1481951436050.jpg" height="400"/&gt;&lt;br&gt;説明：滝がありました&lt;br&gt;関連URL：http://takidera.webcrow.jp/]]&gt;</description><Point><coordinates>135.6906779,34.6913165,0.0</coordinates></Point><styleUrl>#style-2</styleUrl></Placemark><Placemark><name>滝を地蔵の後頭部</name><description>&lt;![CDATA[&lt;h2&gt;滝を地蔵の後頭部&lt;/h2&gt;&lt;img src="http://sv01.ubi-lab.com/Parmo/27/api/mosaic/thumbnail/large/127_1481951480135.jpg" height="400"/&gt;&lt;br&gt;説明：滝&lt;br&gt;関連URL：http://takidera.webcrow.jp/]]&gt;</description><Point><coordinates>135.69013481,34.6906536771,0.0</coordinates></Point><styleUrl>#style-2</styleUrl></Placemark><Placemark><name>信楽焼きのカエル</name><description>&lt;![CDATA[&lt;h2&gt;信楽焼きのカエル&lt;/h2&gt;&lt;img src="http://sv01.ubi-lab.com/Parmo/27/api/mosaic/thumbnail/large/127_1481954307800.jpg" height="400"/&gt;&lt;br&gt;説明：信楽焼きのカエル。子供を背負って、子をおおてかえる、こうてかえる、で商売繁盛らしい。&lt;br&gt;関連URL：undefined]]&gt;</description><Point><coordinates>135.687791398,34.6881002561,0.0</coordinates></Point><styleUrl>#style-0</styleUrl></Placemark><Placemark><name>往馬大社ご神木</name><description>&lt;![CDATA[&lt;h2&gt;往馬大社ご神木&lt;/h2&gt;&lt;img src="http://sv01.ubi-lab.com/Parmo/27/api/mosaic/thumbnail/large/129_1481953799281.jpg" height="400"/&gt;&lt;br&gt;説明：落雷で半分焼け焦げてしまったご神木。&lt;br&gt;関連URL：undefined]]&gt;</description><Point><coordinates>135.7039397,34.6783091,0.0</coordinates></Point><styleUrl>#style-2</styleUrl></Placemark><Placemark><name>大乗瀧寺</name><description>&lt;![CDATA[&lt;h2&gt;大乗瀧寺&lt;/h2&gt;&lt;img src="http://sv01.ubi-lab.com/Parmo/27/api/mosaic/thumbnail/large/131_1481951567692.jpg" height="400"/&gt;&lt;br&gt;説明：大乗瀧寺の瀧。生駒で一番高い滝×お地蔵様。&lt;br&gt;関連URL：http://takidera.webcrow.jp/]]&gt;</description><Point><coordinates>135.6901543,34.6906722,0.0</coordinates></Point><styleUrl>#style-2</styleUrl></Placemark><Placemark><name>絶景ポイント</name><description>&lt;![CDATA[&lt;h2&gt;絶景ポイント&lt;/h2&gt;&lt;img src="http://sv01.ubi-lab.com/Parmo/27/api/mosaic/thumbnail/large/119_1481954335706.jpg" height="400"/&gt;&lt;br&gt;説明：奈良盆地が一望できます！&lt;br&gt;関連URL：undefined]]&gt;</description><Point><coordinates>135.687956354,34.6878555464,0.0</coordinates></Point><styleUrl>#style-3</styleUrl></Placemark><Placemark><name>絶景ポイント２</name><description>&lt;![CDATA[&lt;h2&gt;絶景ポイント２&lt;/h2&gt;&lt;img src="http://sv01.ubi-lab.com/Parmo/27/api/mosaic/thumbnail/large/119_1481954515030.jpg" height="400"/&gt;&lt;br&gt;説明：見晴らしが最高です！&lt;br&gt;関連URL：undefined]]&gt;</description><Point><coordinates>135.687932382,34.6870783763,0.0</coordinates></Point><styleUrl>#style-3</styleUrl></Placemark><Placemark><name>大乗瀧寺の赤い橋</name><description>&lt;![CDATA[&lt;h2&gt;大乗瀧寺の赤い橋&lt;/h2&gt;&lt;img src="http://sv01.ubi-lab.com/Parmo/27/api/mosaic/thumbnail/large/43_1481951661159.jpg" height="400"/&gt;&lt;br&gt;説明：赤い橋&lt;br&gt;関連URL：http://takidera.webcrow.jp/]]&gt;</description><Point><coordinates>135.6901992,34.6906727,0.0</coordinates></Point><styleUrl>#style-2</styleUrl></Placemark><Placemark><name>絶景ポイント３</name><description>&lt;![CDATA[&lt;h2&gt;絶景ポイント３&lt;/h2&gt;&lt;img src="http://sv01.ubi-lab.com/Parmo/27/api/mosaic/thumbnail/large/119_1481954578815.jpg" height="400"/&gt;&lt;br&gt;説明：一番障害物なく見れる場所！&lt;br&gt;関連URL：undefined]]&gt;</description><Point><coordinates>135.688015111,34.6865154896,0.0</coordinates></Point><styleUrl>#style-3</styleUrl></Placemark><Placemark><name>絶景ポイント４</name><description>&lt;![CDATA[&lt;h2&gt;絶景ポイント４&lt;/h2&gt;&lt;img src="http://sv01.ubi-lab.com/Parmo/27/api/mosaic/thumbnail/large/119_1481954645121.jpg" height="400"/&gt;&lt;br&gt;説明：夜だったらすすきと夜景がきれいそう&lt;br&gt;関連URL：undefined]]&gt;</description><Point><coordinates>135.688013854,34.6863189759,0.0</coordinates></Point><styleUrl>#style-3</styleUrl></Placemark><Placemark><name>生駒山上ケーブル 宝山寺駅</name><description>&lt;![CDATA[&lt;h2&gt;生駒山上ケーブル 宝山寺駅&lt;/h2&gt;&lt;img src="http://sv01.ubi-lab.com/Parmo/27/api/mosaic/thumbnail/large/119_1481954793745.jpg" height="400"/&gt;&lt;br&gt;説明：生駒山上ケーブル 宝山寺駅からのながめ&lt;br&gt;関連URL：undefined]]&gt;</description><Point><coordinates>135.688723466,34.6856546263,0.0</coordinates></Point><styleUrl>#style-3</styleUrl></Placemark><Placemark><name>宝山寺 惣門</name><description>&lt;![CDATA[&lt;h2&gt;宝山寺 惣門&lt;/h2&gt;&lt;img src="http://sv01.ubi-lab.com/Parmo/27/api/mosaic/thumbnail/large/119_1481955535891.jpg" height="400"/&gt;&lt;br&gt;説明：前が重めなのが特徴です&lt;br&gt;関連URL：undefined]]&gt;</description><Point><coordinates>135.698827259,34.7169174989,0.0</coordinates></Point><styleUrl>#style-0</styleUrl></Placemark><Placemark><name>金剛生駒国定公園入口の門</name><description>&lt;![CDATA[&lt;h2&gt;金剛生駒国定公園入口の門&lt;/h2&gt;&lt;img src="http://sv01.ubi-lab.com/Parmo/27/api/mosaic/thumbnail/large/43_1481954854134.jpg" height="400"/&gt;&lt;br&gt;説明：金剛生駒国定公園入口&lt;br&gt;関連URL：https://ja.wikipedia.org/wiki/%E9%87%91%E5%89%9B%E7%94%9F%E9%A7%92%E7%B4%80%E6%B3%89%E5%9B%BD%E5%AE%9A%E5%85%AC%E5%9C%92&lt;br&gt;http://www.pref.nara.jp/2991.htm]]&gt;</description><Point><coordinates>135.6887613,34.6855004,0.0</coordinates></Point><styleUrl>#style-2</styleUrl></Placemark><Placemark><name>門前おかげ楼</name><description>&lt;![CDATA[&lt;h2&gt;門前おかげ楼&lt;/h2&gt;&lt;img src="http://sv01.ubi-lab.com/Parmo/27/api/mosaic/thumbnail/large/43_1481955017302.jpg" height="400"/&gt;&lt;br&gt;説明：古い旅館を改装してオープンした茶屋，十割そばが美味しい．&lt;br&gt;&lt;br&gt;関連URL：http://www.okagero.com/]]&gt;</description><Point><coordinates>135.688957,34.684989,0.0</coordinates></Point><styleUrl>#style-4</styleUrl></Placemark><Placemark><name>獅子閣</name><description>&lt;![CDATA[&lt;h2&gt;獅子閣&lt;/h2&gt;&lt;img src="http://sv01.ubi-lab.com/Parmo/27/api/mosaic/thumbnail/large/119_1481956251216.jpg" height="400"/&gt;&lt;br&gt;説明：重要文化財に指定されている洋風客殿&lt;br&gt;関連URL：http://www3.pref.nara.jp/miryoku/masumasu/2479.htm]]&gt;</description><Point><coordinates>135.686928732,34.6846322855,0.0</coordinates></Point><styleUrl>#style-2</styleUrl></Placemark><Placemark><name>宝山寺の表参道</name><description>&lt;![CDATA[&lt;h2&gt;宝山寺の表参道&lt;/h2&gt;&lt;img src="http://sv01.ubi-lab.com/Parmo/27/api/mosaic/thumbnail/large/43_1481955072070.jpg" height="400"/&gt;&lt;br&gt;説明：表参道&lt;br&gt;&lt;br&gt;関連URL：undefined]]&gt;</description><Point><coordinates>135.6889356,34.6849434,0.0</coordinates></Point><styleUrl>#style-3</styleUrl></Placemark><Placemark><name>宝山寺本堂</name><description>&lt;![CDATA[&lt;h2&gt;宝山寺本堂&lt;/h2&gt;&lt;img src="http://sv01.ubi-lab.com/Parmo/27/api/mosaic/thumbnail/large/128_1481956334269.jpg" height="400"/&gt;&lt;br&gt;説明：五間四面・重層の護摩堂様式で建立された聖天堂&lt;br&gt;関連URL：undefined]]&gt;</description><Point><coordinates>135.686815,34.6844415,0.0</coordinates></Point><styleUrl>#style-2</styleUrl></Placemark><Placemark><name>歓喜天が持っている巾着を模した賽銭箱</name><description>&lt;![CDATA[&lt;h2&gt;歓喜天が持っている巾着を模した賽銭箱&lt;/h2&gt;&lt;img src="http://sv01.ubi-lab.com/Parmo/27/api/mosaic/thumbnail/large/119_1481956651035.jpg" height="400"/&gt;&lt;br&gt;説明：お金が貯まるおまじない&lt;br&gt;歓喜天の好物で、食べると身が清められる大根の絵柄が彫られている。&lt;br&gt;関連URL：http://www3.pref.nara.jp/miryoku/masumasu/dd.aspx?menuid=2469#midokoro03]]&gt;</description><Point><coordinates>135.68634091,34.6843035054,0.0</coordinates></Point><styleUrl>#style-2</styleUrl></Placemark><Placemark><name>宝山寺の階段</name><description>&lt;![CDATA[&lt;h2&gt;宝山寺の階段&lt;/h2&gt;&lt;img src="http://sv01.ubi-lab.com/Parmo/27/api/mosaic/thumbnail/large/131_1481955251556.jpg" height="400"/&gt;&lt;br&gt;説明：しめなわ新調したばかり！&lt;br&gt;灯籠祭りも綺麗．&lt;br&gt;関連URL：http://www.hozanji.com/]]&gt;</description><Point><coordinates>135.6885459,34.6848383,0.0</coordinates></Point><styleUrl>#style-3</styleUrl></Placemark><Placemark><name>宝山寺の階段（上から）</name><description>&lt;![CDATA[&lt;h2&gt;宝山寺の階段（上から）&lt;/h2&gt;&lt;img src="http://sv01.ubi-lab.com/Parmo/27/api/mosaic/thumbnail/large/53_1481955296522.jpg" height="400"/&gt;&lt;br&gt;説明：上から見ると坂道に見える石段&lt;br&gt;関連URL：http://www.hozanji.com/]]&gt;</description><Point><coordinates>135.6880899,34.6848187,0.0</coordinates></Point><styleUrl>#style-3</styleUrl></Placemark><Placemark><name>宝山寺の看板</name><description>&lt;![CDATA[&lt;h2&gt;宝山寺の看板&lt;/h2&gt;&lt;img src="http://sv01.ubi-lab.com/Parmo/27/api/mosaic/thumbnail/large/43_1481955469666.jpg" height="400"/&gt;&lt;br&gt;説明：宝山寺とは&lt;br&gt;関連URL：http://www.hozanji.com/]]&gt;</description><Point><coordinates>135.6872565,34.6845666,0.0</coordinates></Point><styleUrl>#style-3</styleUrl></Placemark><Placemark><name>般若窟</name><description>&lt;![CDATA[&lt;h2&gt;般若窟&lt;/h2&gt;&lt;img src="http://sv01.ubi-lab.com/Parmo/27/api/mosaic/thumbnail/large/131_1481957013676.jpg" height="400"/&gt;&lt;br&gt;説明：弥勒菩薩が安置されている。&lt;br&gt;立ち入ることはできない。&lt;br&gt;関連URL：http://www3.pref.nara.jp/miryoku/masumasu/dd.aspx?menuid=2469#midokoro03]]&gt;</description><Point><coordinates>135.6867216,34.6844977,0.0</coordinates></Point><styleUrl>#style-0</styleUrl></Placemark><Placemark><name>宝山寺の入り口</name><description>&lt;![CDATA[&lt;h2&gt;宝山寺の入り口&lt;/h2&gt;&lt;img src="http://sv01.ubi-lab.com/Parmo/27/api/mosaic/thumbnail/large/43_1481955499738.jpg" height="400"/&gt;&lt;br&gt;説明：入り口&lt;br&gt;&lt;br&gt;関連URL：http://www.hozanji.com/]]&gt;</description><Point><coordinates>135.6873211,34.684616,0.0</coordinates></Point><styleUrl>#style-2</styleUrl></Placemark><Placemark><name>宝山寺の手洗い場</name><description>&lt;![CDATA[&lt;h2&gt;宝山寺の手洗い場&lt;/h2&gt;&lt;img src="http://sv01.ubi-lab.com/Parmo/27/api/mosaic/thumbnail/large/43_1481956805111.jpg" height="400"/&gt;&lt;br&gt;説明：心を浄う&lt;br&gt;&lt;br&gt;関連URL：undefined]]&gt;</description><Point><coordinates>135.6869713,34.6846665,0.0</coordinates></Point><styleUrl>#style-0</styleUrl></Placemark><Placemark><name>生駒ケーブルカー</name><description>&lt;![CDATA[&lt;h2&gt;生駒ケーブルカー&lt;/h2&gt;&lt;img src="http://sv01.ubi-lab.com/Parmo/27/api/mosaic/thumbnail/large/131_1481957913752.jpg" height="400"/&gt;&lt;br&gt;説明：日本で一番古いケーブルカーですよぉ～久しぶりに乗車&lt;br&gt;関連URL：undefined]]&gt;</description><Point><coordinates>135.6891336,34.6860863,0.0</coordinates></Point><styleUrl>#style-1</styleUrl></Placemark><Placemark><name>下山後に記念撮影</name><description>&lt;![CDATA[&lt;h2&gt;下山後に記念撮影&lt;/h2&gt;&lt;img src="http://sv01.ubi-lab.com/Parmo/27/api/mosaic/thumbnail/large/127_1481958440880.jpg" height="400"/&gt;&lt;br&gt;説明：ブルーとみんなで記念撮影できます&lt;br&gt;関連URL：undefined]]&gt;</description><Point><coordinates>135.69625184,34.6924046148,0.0</coordinates></Point><styleUrl>#style-0</styleUrl></Placemark></Folder></Document></kml>
